[
    { "name": "BGH", "lat": 6.89061, "lng": 3.71996, "category": "" },
    { "name": "Amphi Theatre", "lat": 6.89076, "lng": 3.72210, "category": "" },
    { "name": "Cafeteria", "lat":  6.89286, "lng": 3.72351, "category": "Cafeteria" },
    { "name": "Andrews park", "lat": 6.88796, "lng": 3.72039, "category": "Recreation Centres" },
    { "name": "Main gate", "lat": 6.89277, "lng": 3.71827, "category": "Gates" },
    { "name": "Winslow", "lat": 6.89402, "lng": 3.72167, "category": "Hostels" },
    { "name": "Babrite", "lat": 6.89120, "lng": 3.72049, "category": "Recreation Centres" },
    { "name": "Neil Wilson", "lat": 6.89364, "lng": 3.72137, "category": "Hostels" },
    { "name": "Gideon Troopers", "lat":  6.89471, "lng": 3.72230, "category": "Hostels" },
    { "name": "Bethel Splendor", "lat":  6.89467, "lng": 3.72313, "category": "Hostels" },
    { "name": "Nelson Mandela", "lat": 6.89372, "lng": 3.72299, "category": "Hostels" },
    { "name": "BUSA", "lat":  6.89224, "lng": 3.72388, "category": "Recreation Centres" },
    { "name": "Stadium", "lat": 6.89509, "lng": 3.72761, "category": "Recreation Centres" },
    { "name": "Whitehall", "lat":  6.89386, "lng": 3.72626, "category": "Hostels" },
    { "name": "Nyberg", "lat":  6.89267, "lng": 3.72539, "category": "Hostels" },
    { "name": "Ogden", "lat": 6.89327, "lng": 3.72649, "category": "Hostels" },
    { "name": "Platinum", "lat":  6.89211, "lng": 3.72754, "category": "Hostels" },
    { "name": "Crystal", "lat": 6.89272, "lng": 3.72818, "category": "Hostels" },
    { "name": "Registry", "lat":  6.88942, "lng": 3.72177, "category": "Administrative Block" },
    { "name": "BBS", "lat": 6.89075, "lng": 3.72363, "category": "Academic Buildings" },
    { "name": "Sapphire", "lat": 6.89069, "lng": 3.72622, "category": "Hostels" },
    { "name": "Havillah Gold", "lat": 6.89485, "lng": 3.72605, "category": "Hostels" },
    { "name": "Queen Esther", "lat": 6.89331, "lng": 3.72430, "category": "Hostels" },
    { "name": "Banking Area", "lat": 6.89104, "lng": 3.72063, "category": "Banks" },
    { "name": "Bucodel", "lat": 6.89167, "lng": 3.72310, "category": "Academic Buildings" },
    { "name": "Library", "lat": 6.89232, "lng": 3.72240, "category": "Academic Buildings" },
    { "name": "New Horizon", "lat":  6.89048, "lng": 3.72315, "category": "Academic Buildings" },
    { "name": "Bursary", "lat": 6.89014, "lng": 3.72296, "category": "Administrative Block" },
    { "name": "New Horizon 2", "lat": 6.89020, "lng": 3.72350, "category": "Academic Buildings" },
    { "name": "Pioneer", "lat": 6.88987, "lng": 3.71978, "category": "Administrative Block" },
    { "name": "Buth gate", "lat": 6.89126, "lng": 3.71730, "category": "Gates" },
    { "name": "Buth", "lat":  6.89151, "lng": 3.71784, "category": "Hospital" },
    { "name": "Welch", "lat": 6.89137, "lng": 3.72181, "category": "Hostels" },
    { "name": "Samuel Akande", "lat": 6.89413, "lng": 3.72342, "category": "Hostels" },
    { "name": "Topaz", "lat": 6.89377, "lng": 3.72072, "category": "Hostels" },
    { "name": "Emerald", "lat":  6.89393, "lng": 3.71972, "category": "Hostels" },
    { "name": "Alumni", "lat": 6.89253, "lng": 3.72004, "category": "Administrative Block" },
    { "name": "Staff School", "lat": 6.89210, "lng": 3.71937, "category": ["All", "Academics"] },
    { "name": "SAT", "lat": 6.88884, "lng": 3.72281, "category": "Academic Buildings" },
    { "name": "BGH", "lat": 6.89060, "lng": 3.71998, "category": "Recreation Centres" },
    { "name": "EAH", "lat":  6.89024, "lng": 3.72087, "category": "Academic Buildings" },
    { "name": "Staff Quarters", "lat":  6.88656, "lng": 3.72432, "category": "Administrative Block" },
    { "name": "Diamond", "lat":  6.89157, "lng": 3.72734, "category": "Hostels" },
    { "name": "FAD", "lat":  6.89385, "lng": 3.72473, "category": "Hostels" },
    { "name": "Ameyo", "lat": 6.89503, "lng": 3.72486, "category": "Hostels" },
    { "name": "Adeleke", "lat": 6.89277, "lng": 3.72121, "category": "" },
    { "name": "Farm", "lat":  6.88924, "lng": 3.72924, "category": "Academic Buildings" },
    { "name": "Senate Building", "lat": 6.88885, "lng": 3.72179, "category": "Administrative Block" },
    { "name": "MSQ Gate", "lat": 6.89496, "lng": 3.72376, "category": "Gates" },
    { "name": "Nursing Building", "lat":  6.89125, "lng": 3.72287, "category": "Academic Buildings" }
  ]
  
